latitude,longitude,name
33.93911,67.709953,Afghanistan
-25.274398,133.775136,Australia
23.684994,90.356331,Bangladesh
22.396428,114.109497,Hong Kong
20.593684,78.96288,India
53.41291,-8.24389,Ireland
52.132633,5.291266,Netherlands
-40.900557,174.885971,New Zealand
21.512583,55.923255,Oman
30.375321,69.345116,Pakistan
-6.314993,143.95555,Papua New Guinea
7.873054,80.771797,Sri Lanka
23.424076,53.847818,United Arab Emirates
-19.015438,29.154857,Zimbabwe